{"type":"FeatureCollection","features":[{"type":"Feature","properties":{"Name":"MEETING UKRAINIANS' CRITICAL NEEDS","Type":"INTERNATIONAL CRISIS RESPONSE","Location":"Ukraine","Link":"https://video.samaritanspurse.org/meeting-ukrainians-critical-needs-in-jesus-name/"},"geometry":{"type":"Point","coordinates":[31.44564223,49.57553068]}},{"type":"Feature","properties":{"Name":"MEDICAL SUPPLIES ARRIVE AT ETHIOPIA HOSPITAL","Type":"INTERNATIONAL CRISIS RESPONSE","Location":"Ethiopia","Link":"https://video.samaritanspurse.org/medical-supplies-arrive-at-ethiopia-hospital/"},"geometry":{"type":"Point","coordinates":[38.92427781,12.76673358]}},{"type":"Feature","properties":{"Name":"DC-8 LANDS IN POLAND; FIELD HOSPITAL OFFLOADED FOR UKRAINE","Type":"INTERNATIONAL CRISIS RESPONSE","Location":"Ukraine","Link":"https://video.samaritanspurse.org/dc-8-lands-in-poland-field-hospital-offloaded-for-ukraine/"},"geometry":{"type":"Point","coordinates":[22.61076345,51.29681515]}},{"type":"Feature","properties":{"Name":"SUPPORTING AFGHAN EVACUEES IN ALBANIA","Type":"INTERNATIONAL CRISIS RESPONSE","Location":"Albania","Link":"https://video.samaritanspurse.org/supporting-afghan-evacuees-in-albania/"},"geometry":{"type":"Point","coordinates":[19.99482781,41.25206108]}},{"type":"Feature","properties":{"Name":"PROVIDING TARPS AFTER TYPHOON RAI","Type":"INTERNATIONAL CRISIS RESPONSE","Location":"Phillipinies","Link":"https://video.samaritanspurse.org/providing-tarps-after-typhoon-rai/"},"geometry":{"type":"Point","coordinates":[125.6082923,10.12738374]}},{"type":"Feature","properties":{"Name":"REBUILDING LIVES IN IRAQ","Type":"INTERNATIONAL CRISIS RESPONSE","Location":"Iraq","Link":"https://video.samaritanspurse.org/rebuilding-lives-in-iraq/"},"geometry":{"type":"Point","coordinates":[43.27184707,33.55415703]}},{"type":"Feature","properties":{"Name":"PROVIDING CLEAN WATER IN HAITI","Type":"INTERNATIONAL CRISIS RESPONSE","Location":"Haiti","Link":"https://video.samaritanspurse.org/providing-clean-water-in-haiti/"},"geometry":{"type":"Point","coordinates":[-72.39040669,19.17154865]}},{"type":"Feature","properties":{"Name":"FROM WONDERLAND TO NIGHTMARE","Type":"INTERNATIONAL CRISIS RESPONSE","Location":"Germany","Link":"https://video.samaritanspurse.org/from-wonderland-to-nightmare/"},"geometry":{"type":"Point","coordinates":[9.455666134,51.52204106]}},{"type":"Feature","properties":{"Name":"VENEZUELAN MOTHERS GIVE THANKS","Type":"INTERNATIONAL CRISIS RESPONSE","Location":"Columbia","Link":"https://video.samaritanspurse.org/venezuelan-mothers-give-thanks/"},"geometry":{"type":"Point","coordinates":[-73.17124643,4.133932664]}},{"type":"Feature","properties":{"Name":"SERVING FLEEING FAMILIES IN ARMENIA","Type":"INTERNATIONAL CRISIS RESPONSE","Location":"Armenia","Link":"https://video.samaritanspurse.org/serving-fleeing-families-in-armenia/"},"geometry":{"type":"Point","coordinates":[44.51007023,40.36647128]}},{"type":"Feature","properties":{"Name":"FLYING IN HOPE FOR HONDURAS","Type":"INTERNATIONAL CRISIS RESPONSE","Location":"Honduras","Link":"https://video.samaritanspurse.org/flying-in-hope-for-honduras/"},"geometry":{"type":"Point","coordinates":[-87.04727331,15.15576257]}},{"type":"Feature","properties":{"Name":"FIELD HOSPITAL RUSHED TO THE BAHAMAS","Type":"INTERNATIONAL CRISIS RESPONSE","Location":"Bahamas","Link":"https://video.samaritanspurse.org/field-hospital-rushed-to-the-bahamas/"},"geometry":{"type":"Point","coordinates":[-77.90319435,24.51764218]}},{"type":"Feature","properties":{"Name":"ANSWERED PRAYERS IN BEIRUT","Type":"INTERNATIONAL CRISIS RESPONSE","Location":"Beirut","Link":"https://video.samaritanspurse.org/answered-prayers-in-beirut/"},"geometry":{"type":"Point","coordinates":[35.50719613,33.87880487]}},{"type":"Feature","properties":{"Name":"REBUILDING IN BOLIVIA","Type":"INTERNATIONAL CRISIS RESPONSE","Location":"Bolivia","Link":"https://video.samaritanspurse.org/rebuilding-in-bolivia/"},"geometry":{"type":"Point","coordinates":[-65.45400497,-16.05151531]}},{"type":"Feature","properties":{"Name":"HELPING TO LIFT ITALY'S BURDEN","Type":"INTERNATIONAL CRISIS RESPONSE","Location":"Italy","Link":"https://video.samaritanspurse.org/helping-to-lift-italys-burden/"},"geometry":{"type":"Point","coordinates":[11.81327155,43.36741852]}},{"type":"Feature","properties":{"Name":"VOLUNTEERS BLESS AUSTRALIAN HOMEOWNER","Type":"INTERNATIONAL CRISIS RESPONSE","Location":"Australia","Link":"https://video.samaritanspurse.org/volunteers-bless-australian-homeowner/"},"geometry":{"type":"Point","coordinates":[132.2520528,-24.44345672]}}]}
